[{"type":"Feature","properties":{"name":"Le Barrio Latino","address":"12 Rue Emile Garet 64000 Pau"},"geometry":{"type":"Point","coordinates":[-0.361145,43.302498]}},{"type":"Feature","properties":{"name":"Le connemara","address":"17 Rue Valéry Meunier 64000 Pau"},"geometry":{"type":"Point","coordinates":[-0.367358,43.296401]}},{"type":"Feature","properties":{"name":"Le Paradoxe","address":"4 Cours Bosquet 64000 Pau"},"geometry":{"type":"Point","coordinates":[-0.364708,43.298607]}},{"type":"Feature","properties":{"name":"Le cabanon","address":"14 Avenue Fouchet 64000 Pau"},"geometry":{"type":"Point","coordinates":[-0.371006,43.313762]}},{"type":"Feature","properties":{"name":"Le zen","address":"144 Avenue Jean Mermoz 64000 Pau"},"geometry":{"type":"Point","coordinates":[-0.377805,43.315571]}},{"type":"Feature","properties":{"name":"Le sulky","address":"62 Avenue Jean Mermoz 64000 Pau"},"geometry":{"type":"Point","coordinates":[-0.376909,43.311189]}},{"type":"Feature","properties":{"name":"Philbo anims","address":"5 Avenue du Président Kennedy 64000 Pau"},"geometry":{"type":"Point","coordinates":[-0.3686564,43.3039602]}},{"type":"Feature","properties":{"name":"Le Hoegaarden","address":"4 Avenue Université 64000 Pau"},"geometry":{"type":"Point","coordinates":[-0.364440,43.311318]}},{"type":"Feature","properties":{"name":"Le paname","address":"86 Boulevard de la Paix 64000 Pau"},"geometry":{"type":"Point","coordinates":[-0.336031,43.315748]}},{"type":"Feature","properties":{"name":"Le trinquet","address":"66 Avenue Didier Daurat 64000 Pau"},"geometry":{"type":"Point","coordinates":[-0.379201,43.332410]}},{"type":"Feature","properties":{"name":"V&B","address":"70 Avenue Louis Sallenave 64000 Pau"},"geometry":{"type":"Point","coordinates":[-0.358804,43.318114]}},{"type":"Feature","properties":{"name":"Café des lilas","address":"60 Avenue des Lilas 64000 Pau"},"geometry":{"type":"Point","coordinates":[-0.343707,43.309723]}},{"type":"Feature","properties":{"name":"Le bar à bord","address":"Avenue du Général de Gaulle 64110 Mazères Lezon"},"geometry":{"type":"Point","coordinates":[-0.360332,43.280721]}},{"type":"Feature","properties":{"name":"Le joffre","address":"4 Place du Maréchal Joffre 64320 Bizanos"},"geometry":{"type":"Point","coordinates":[-0.350690,43.287943]}},{"type":"Feature","properties":{"name":"Le central","address":"58 Rue Louis Barthou 64110 Gelos"},"geometry":{"type":"Point","coordinates":[-0.371742,43.283275]}},{"type":"Feature","properties":{"name":"Café du stade","address":"75 Rue du 14 Juillet 64000 Pau"},"geometry":{"type":"Point","coordinates":[-0.380085,43.287597]}},{"type":"Feature","properties":{"name":"Le blue legend","address":"34 Rue d'Etigny 64000 Pau"},"geometry":{"type":"Point","coordinates":[-0.379695,43.296266]}},{"type":"Feature","properties":{"name":"L'aragon","address":"18 Boulevard des Pyrénées 64000 Pau"},"geometry":{"type":"Point","coordinates":[-0.368773,43.293698]}},{"type":"Feature","properties":{"name":"Le Café russe","address":"20 Boulevard des Pyrénées 64000 Pau"},"geometry":{"type":"Point","coordinates":[-0.369687,43.293717]}},{"type":"Feature","properties":{"name":"La brasserie de la paix","address":"318 Boulevard de la Paix 6400 Pau"},"geometry":{"type":"Point","coordinates":[-0.369376,43.323147]}},{"type":"Feature","properties":{"name":"Bodega san fermin","address":"1 Rue des Orphelines 64000 Pau"},"geometry":{"type":"Point","coordinates":[-0.366309,43.295315]}},{"type":"Feature","properties":{"name":"Le boga boga","address":"19 Rue des Orphelines 64000 Pau"},"geometry":{"type":"Point","coordinates":[-0.367425,43.295160]}},{"type":"Feature","properties":{"name":"L'entropie","address":"27 rue Bernadotte 64000 Pau"},"geometry":{"type":"Point","coordinates":[-0.373985,43.297620]}},{"type":"Feature","properties":{"name":"Au grin de raisin","address":"11 Rue Sully 64000 Pau"},"geometry":{"type":"Point","coordinates":[-0.373789,43.295273]}},{"type":"Feature","properties":{"name":"L'imparfait","address":"20 Rue du Hedas 64000 Pau"},"geometry":{"type":"Point","coordinates":[-0.372488,43.296755]}},{"type":"Feature","properties":{"name":"Le café du parc","address":"5 Place Saint-Louis de Gonzague 64000 Pau"},"geometry":{"type":"Point","coordinates":[-0.365836,43.296270]}},{"type":"Feature","properties":{"name":"Le matisse","address":"17 Rue Mathieu Lalanne 64000 Pau"},"geometry":{"type":"Point","coordinates":[-0.364874,43.297822]}},{"type":"Feature","properties":{"name":"Le café du palais","address":"7 Rue Saint-Jacques 64000 Pau"},"geometry":{"type":"Point","coordinates":[-0.370918,43.298151]}},{"type":"Feature","properties":{"name":"Le café de Pau","address":"6 Rue Carnot 64000 Pau"},"geometry":{"type":"Point","coordinates":[-0.370339,43.299103]}},{"type":"Feature","properties":{"name":"Le garage","address":"49 Rue Emile Garet, 64000 Pau"},"geometry":{"type":"Point","coordinates":[-0.362991,43.299629]}},{"type":"Feature","properties":{"name":"La brasserie du marché","address":"14 Rue Carnot 64000 Pau"},"geometry":{"type":"Point","coordinates":[-0.369701,43.300692]}},{"type":"Feature","properties":{"name":"Le new red lion","address":"8 Rue Lapouble 64000 Pau"},"geometry":{"type":"Point","coordinates":[-0.374546,43.300171]}},{"type":"Feature","properties":{"name":"La tireuse","address":"2 Rue Bourbaki 64000 Pau"},"geometry":{"type":"Point","coordinates":[-0.371007,43.303559]}},{"type":"Feature","properties":{"name":"L'europub","address":"63-65 Route de Bayonne 64140 Billère"},"geometry":{"type":"Point","coordinates":[-0.402064,43.305043]}},{"type":"Feature","properties":{"name":"Le pilota","address":"458 Boulevard du Cami Salié 64000 Pau"},"geometry":{"type":"Point","coordinates":[-0.366486,43.333566]}},{"type":"Feature","properties":{"name":"L'estanquet","address":"6 Avenue Didier Daurat 64140 Lons"},"geometry":{"type":"Point","coordinates":[-0.365084,43.297814]}},{"type":"Feature","properties":{"name":"La cave à bière","address":"148 Boulevard Europe 64230 Lescar"},"geometry":{"type":"Point","coordinates":[-0.443277,43.327604]}}]